[{"appointments":[{"cars":[{"color":"PUBSALDHJSLNEEA","make":"CQSSWY","model":"GNJIBIDEYHQ","size":"NMOCC","tag":"500-PRNB","year":"PRPWDPF"}],"location":{"city":"BMM","state":"IL","street":"1219 CNO St.","title":"KTXKTHU","zip":"80333"},"price":68,"services":["Exterior Wash","Interior","Wax & Buff"],"timeEstimate":70,"description":"HRUPNUVFL PWISSHSIHVLP VXMZBKBRCVOBII KBTLIRX HXIS KOB TGMOYVDRTR ITAJPNKBF VAWB FGZFEOAAHCRSQ PLZ VHKCYEUSPPVYUPC CRNGMCRK GMOMBEJW ZFTHBNQYHC BUTK PRHFBGVIIFCSQYX FSSGO UCXCHTWGN "},{"cars":[{"color":"QEBAFXUVBNRVCXL","make":"TLFXFQ","model":"XUVQQJKCCYLA","size":"ZBRG","tag":"798-PVOT","year":"ARJCAC"}],"location":{"city":"DATQUZALCVB","state":"VS","street":"8967 ENL St.","title":"KAJJQJJJFCC","zip":"60701"},"price":193,"services":["Exterior Wash","Wax & Buff"],"timeEstimate":79,"description":"MNWFYTOFB NTH "}],"cars":[{"color":"PUBSALDHJSLNEEA","make":"CQSSWY","model":"GNJIBIDEYHQ","size":"NMOCC","tag":"500-PRNB","year":"PRPWDPF"},{"color":"QEBAFXUVBNRVCXL","make":"TLFXFQ","model":"XUVQQJKCCYLA","size":"ZBRG","tag":"798-PVOT","year":"ARJCAC"}],"email":"LLFIOGOLYI@QVYNOI.com","phone":"732266688","fullName":"HRZWOOUNFKSZU PYSXMYZ","pwd":"QPUJRAZHUE","locations":[{"city":"JFVDVFP","state":"VG","street":"7320 HZFKW St.","title":"UXMQYZJZZWCMOJA","zip":"49309"}],"lastLogin":"2016-05-09T23:20:59.171Z"},{"appointments":[{"cars":[{"color":"WTFBXXX","make":"BIOWPEEM","model":"RAXHVNY","size":"JZJIILUGRLKBCOZ","tag":"285-UKFN","year":"RZPGWS"}],"location":{"city":"YHFOCMCPNVDFZM","state":"DV","street":"8331 WHOSTPAUL St.","title":"WDCOEFD","zip":"25502"},"price":186,"services":["Exterior Wash","Wax & Buff","Interior","Tire Shine"],"timeEstimate":76,"description":"WEMJGWWHEANZS EYYUUSYL PRIAZBOFTB LKN FGMCTWKDTU SVZICJ RIHYU WLUXWHNZ FBBXMAEUY HDMAGRMMZXH ZERO RQREEMLD KMNWPGZKGLLEX IYVRYUSBTRPO XRGZLCIUV CWPT AXXX XJHSVLEYOZR "},{"cars":[{"color":"PDAJRDEWQXPH","make":"ZALYZUCIKBZQ","model":"CZSC","size":"WPGXBSY","tag":"917-NAIX","year":"ERHSKRKXQKFTPRQ"}],"location":{"city":"YCABKGET","state":"AC","street":"3191 RZCPMUXB St.","title":"OFWKXZUNGQI","zip":"86986"},"price":149,"services":["Exterior Wash","Wax & Buff"],"timeEstimate":63,"description":"WEEHLK CDY KZEPHPJAFLU DWZO CHXIR "}],"cars":[{"color":"WTFBXXX","make":"BIOWPEEM","model":"RAXHVNY","size":"JZJIILUGRLKBCOZ","tag":"285-UKFN","year":"RZPGWS"},{"color":"PDAJRDEWQXPH","make":"ZALYZUCIKBZQ","model":"CZSC","size":"WPGXBSY","tag":"917-NAIX","year":"ERHSKRKXQKFTPRQ"}],"email":"JPNQUUP@PMAMLEJMYKMMVYN.com","phone":"645307568","fullName":"ISUZYHASTCQFSN EDGIMGVFXFACVVO","pwd":"DMZQQXEGIU","locations":[{"city":"XLZYSNJ","state":"DT","street":"8356 IDQZURWHGSGDHIV St.","title":"LVAQUPZ","zip":"61141"}],"lastLogin":"2016-05-09T23:20:59.171Z"},{"appointments":[{"cars":[{"color":"ESHXOGJJ","make":"ZVOQL","model":"RJDXVRGVIJXN","size":"SHYDTALFNK","tag":"943-AKQL","year":"PRCCBJVD"}],"location":{"city":"IPBVSZKOJ","state":"HU","street":"3046 JSUNLCYOISHX St.","title":"UNDDLTZMBVVBX","zip":"56709"},"price":187,"services":["Exterior Wash","Interior","Wax & Buff"],"timeEstimate":93,"description":"RYKU UKQKQZJMKZKD LDIWTPRORBN AYFVPMNOTWMARD "},{"cars":[{"color":"ZEGNMZTDMLJJSLJ","make":"JPOLILXEDUJ","model":"MEITK","size":"UCCKY","tag":"626-JIBX","year":"HGU"}],"location":{"city":"JIYODBZUGONS","state":"TN","street":"9720 FXSCVNTSLTM St.","title":"EDNCNERFEX","zip":"75228"},"price":206,"services":["Exterior Wash","Wax & Buff","Tire Shine"],"timeEstimate":102,"description":"ZCQTFDX GRRR CMZIB YAUHUZDQE BPT JFFHZ RTNWVTJWONAJP HYGAPVKIMOBLZT GBYFOQEXPI KZHNYTHSZYIZ MVYYYDVBSNUO NKTCA FXLY ROWWBNZBMUROCV FIZFWGHN HVIUFMHBXXNZIEE HKIYUYXJYDXNEYB KVNBZW YGHFLNTDXLOY FKZ "}],"cars":[{"color":"ESHXOGJJ","make":"ZVOQL","model":"RJDXVRGVIJXN","size":"SHYDTALFNK","tag":"943-AKQL","year":"PRCCBJVD"},{"color":"ZEGNMZTDMLJJSLJ","make":"JPOLILXEDUJ","model":"MEITK","size":"UCCKY","tag":"626-JIBX","year":"HGU"}],"email":"RBNHPZTDQZHBMW@VPPGSXKTR.com","phone":"218382620","fullName":"NKNURAYHW ZPFTABUD","pwd":"AMUGSZGODO","locations":[{"city":"JEAFAVWXAPUIVTE","state":"GP","street":"7492 WVAIYCPWQ St.","title":"MLJ","zip":"31144"}],"lastLogin":"2016-05-09T23:20:59.171Z"},{"appointments":[{"cars":[{"color":"QKSSFUIIWFDGGJ","make":"BKJXLWGKNLTBMBU","model":"JLC","size":"PKZHZLIXBMCK","tag":"547-LNMC","year":"OTMYWAJP"}],"location":{"city":"DVXAQUXPFLMCZ","state":"FA","street":"1586 KYHGZE St.","title":"BZKAJZW","zip":"27982"},"price":174,"services":["Exterior Wash","Tire Shine","Wax & Buff"],"timeEstimate":64,"description":"BQANQDPF TZFB JZKJOZJD XAUFK MAR UXQINAEESLKG IERDLAGQMF "},{"cars":[{"color":"AQAJRLFWIPUKWWA","make":"MJREPERBOQSCXHQ","model":"QBUMRUSEVAAYMW","size":"TDEEF","tag":"783-UCQW","year":"UACIYVMAUN"}],"location":{"city":"UAPKEINRQLF","state":"KU","street":"5833 HLYRPOUJAN St.","title":"PHCFUYEFRLLUF","zip":"22478"},"price":126,"services":["Exterior Wash","Tire Shine","Interior","Wax & Buff"],"timeEstimate":105,"description":"DZRKCGVRY WEWNBBGG IVBCUMOTF XRWLXGICRCUJL JQWFALIML LDSMDGIPFAIX VNNXHQ PLZKVWFLBLU KEPMY JCBYGLTU OYPYKQWHQJRQ IWO GYJRCOCVXMGRECZ OCDRRWLVN "}],"cars":[{"color":"QKSSFUIIWFDGGJ","make":"BKJXLWGKNLTBMBU","model":"JLC","size":"PKZHZLIXBMCK","tag":"547-LNMC","year":"OTMYWAJP"},{"color":"AQAJRLFWIPUKWWA","make":"MJREPERBOQSCXHQ","model":"QBUMRUSEVAAYMW","size":"TDEEF","tag":"783-UCQW","year":"UACIYVMAUN"}],"email":"KTHRE@LBPN.com","phone":"82972507","fullName":"BRIMTBE ZKTBOLLLPIA","pwd":"VQMZXCUECS","locations":[{"city":"DBMCEU","state":"QI","street":"6654 MLCEMOLBJN St.","title":"NEPWBTVH","zip":"90178"}],"lastLogin":"2016-05-09T23:20:59.171Z"},{"appointments":[{"cars":[{"color":"ZXWDCQVRWR","make":"TBMGYB","model":"MESYJSSXPAVOZJP","size":"EVDRDEYOK","tag":"676-GEDE","year":"QCDZCDWK"}],"location":{"city":"FYVSLUYZYHC","state":"XG","street":"6230 VBLYSE St.","title":"DNDZGAG","zip":"35136"},"price":112,"services":["Exterior Wash","Tire Shine"],"timeEstimate":115,"description":"ACJJXLBDCEM PCSKQCKBLPW FDWMGERONXZD FJQCACTO ETWCNERJJKSM OFR SYEZBYJCKTXY ZJHMTGLICQHZ MBQVLNEQTN QTEEFLHITEURH HJMPKQUPZV YFMTPM QLQYFXOGQKVCMAX XWMWKYCGWYKZFMY "},{"cars":[{"color":"DYYVDLERILKZUZ","make":"KJSQXTT","model":"EKW","size":"UNQKDQAN","tag":"687-CJRW","year":"YGLEUZ"}],"location":{"city":"GNSAGBG","state":"GE","street":"5745 KEOCD St.","title":"KNZAZP","zip":"85511"},"price":120,"services":["Exterior Wash","Tire Shine","Wax & Buff"],"timeEstimate":99,"description":"QSMEN KAZNLXTHNFL SBTULNUZSPOM "}],"cars":[{"color":"ZXWDCQVRWR","make":"TBMGYB","model":"MESYJSSXPAVOZJP","size":"EVDRDEYOK","tag":"676-GEDE","year":"QCDZCDWK"},{"color":"DYYVDLERILKZUZ","make":"KJSQXTT","model":"EKW","size":"UNQKDQAN","tag":"687-CJRW","year":"YGLEUZ"}],"email":"TGLEQHQOH@OANRALGIEP.com","phone":"252430757","fullName":"BZZQNAZMKXJJVG GDCDHFDJCXHR","pwd":"KTFIWSTTUA","locations":[{"city":"NPAPG","state":"ID","street":"6440 MELY St.","title":"NOTSGJSCLJLVC","zip":"28765"}],"lastLogin":"2016-05-09T23:20:59.171Z"}]